Station,oldest_date,newest_date,Latitude,Longitude
14MILE,8/18/2020,10/17/2022,38.04221944,-121.405
BAY,8/31/2022,8/31/2022,37.81548345,-122.3519149
BEN,9/1/2022,10/27/2022,38.0548972,-122.1072722
BIS,8/31/2022,8/31/2022,37.55988889,-122.2069056
BRK,9/1/2022,10/27/2022,37.8906611,-122.3465833
C10A,9/26/2022,10/26/2021,37.679167,-121.264444
CCH,7/26/2018,10/17/2018,38.21277778,-121.6691667
CCH41,9/17/2019,10/18/2022,38.19395556,-121.6580028
CCO2,3/10/2017,3/10/2017,38.67851526,-121.6727386
CFL,9/7/2022,1/12/2021,38.04953056,-121.88755
CHS,3/15/2017,3/15/2017,38.28838056,-121.7230194
DEC,9/23/2020,1/12/2021,38.09325203,-121.7371772
DECN,9/3/2020,6/9/2021,38.1025,-121.7111
DWS62,9/9/2021,1/20/2022,38.34166667,-121.6438889
DWS66,9/9/2021,9/9/2021,38.40444444,-121.6145556
DWS72,9/9/2021,1/20/2022,38.47686944,-121.5836417
DWS76,9/9/2021,9/9/2021,38.53725,-121.5839806
ELS,8/31/2022,10/26/2022,37.59437867,-122.1630206
EMY,9/1/2022,10/27/2022,37.836316,-122.3155255
FPT,9/14/2021,1/4/2022,38.45601954,-121.5013437
FRK,8/18/2021,8/18/2021,38.04585,-121.5968
FT01,8/9/2022,6/21/2022,38.05916667,-121.5869444
FT02,8/9/2022,6/21/2022,38.05416667,-121.5980556
FT03,6/7/2022,6/7/2022,38.05138889,-121.6077778
FT04,8/9/2022,6/21/2022,38.0472222,-121.6172222
FT05,8/9/2022,6/21/2022,38.04416667,-121.6288889
FT11,8/9/2022,6/21/2022,38.0472222,-121.5869444
FT12,8/9/2022,6/21/2022,38.04638889,-121.5930556
FT13,6/7/2022,6/7/2022,38.04388889,-121.6016667
FT14,8/9/2022,6/21/2022,38.0408333,-121.6119444
FT15,8/9/2022,6/21/2022,38.03777778,-121.6175
FT21,8/9/2022,6/21/2022,38.0375,-121.5891667
FT22,8/9/2022,6/21/2022,38.0372222,-121.5941667
FT23,6/7/2022,6/7/2022,38.03305556,-121.6008333
FT24,8/9/2022,6/21/2022,38.0311111,-121.6052778
FT25,8/9/2022,6/21/2022,38.02888889,-121.6102778
FTA,9/28/2021,9/28/2021,38.0626111,-121.5953
FTB,9/28/2021,9/28/2021,38.05821944,-121.5917
FTC,9/28/2021,9/28/2021,38.05923889,-121.5844
FTD,9/28/2021,9/28/2021,38.06155,-121.5882
FTMI11,8/9/2022,6/21/2022,37.99555556,-121.5177778
FTMI12,6/7/2022,6/7/2022,37.9886111,-121.5191667
FTMI13,6/7/2022,6/7/2022,37.9883333,-121.5191667
FTMI14,8/9/2022,6/21/2022,37.97416667,-121.5205556
FTMI15,8/9/2022,6/21/2022,37.9861111,-121.52
FTMI21,8/9/2022,6/21/2022,37.9972222,-121.5213889
FTMI22,6/7/2022,6/7/2022,37.99,-121.5238889
FTMI23,6/7/2022,6/7/2022,37.98277778,-121.5258333
FTMI24,8/9/2022,6/21/2022,37.97388889,-121.5283333
FTMI25,8/9/2022,6/21/2022,37.98777778,-121.5258333
GAM,8/17/2020,10/18/2022,38.13028056,-121.5797
GRC,8/31/2022,8/31/2022,37.53271389,-122.1742306
GRZ,9/7/2021,1/25/2022,38.10853056,-122.0559806
GRZ@DWR,8/26/2021,6/16/2021,38.11694444,-122.0397222
HAY,8/31/2022,6/15/2022,37.611739,-122.2012
HBC,9/3/2020,6/9/2021,38.10185,-121.707461
HOOD,9/10/2019,10/19/2018,38.36796663,-121.5213432
HRS,9/7/2022,8/31/2022,37.627625,-122.1585639
JPT,9/7/2022,1/12/2021,38.05214242,-121.6888428
LCT,8/31/2021,3/1/2017,38.32885,-121.6675306
LHTN,8/31/2021,6/8/2021,38.33541111,-121.6581861
LIB,9/9/2022,1/18/2022,38.24301111,-121.6842861
LIBWS,8/31/2020,6/8/2021,38.24458333,-121.6860167
LIS,8/20/2019,3/1/2017,38.47478056,-121.588225
LPS,9/6/2022,10/13/2022,38.09638889,-121.4961111
LS1,7/18/2022,10/18/2022,38.26105,-121.748
MAL,9/17/2020,10/20/2020,38.19489444,-122.0328139
MAS,9/2/2020,6/7/2021,38.03971111,-121.7866694
MDM,9/6/2022,1/21/2022,37.9427017,-121.5341175
MDO,9/3/2020,6/9/2021,38.056975,-121.5407694
MGI,9/1/2022,10/27/2022,38.06037778,-122.0007056
MID PROSPECT,8/3/2016,5/6/2016,38.30573889,-121.6574611
MLD,7/26/2018,10/17/2018,38.04269787,-121.9202374
MOK,7/25/2018,10/18/2018,38.10611111,-121.5711111
MOK AB CFL,9/11/2019,9/11/2019,38.22931111,-121.4907611
MRB,8/19/2020,10/19/2018,37.89159208,-121.4899492
MRH,7/28/2021,10/19/2018,38.00305556,-121.5108333
MS1,7/18/2022,10/18/2022,38.28918889,-121.6148
MS2,7/18/2022,10/18/2022,38.26436667,-121.645675
MTP,9/3/2020,6/9/2021,38.06068056,-121.5389694
MTZI,3/23/2022,3/23/2022,38.07043889,-121.8395806
NEW HOPE,9/12/2019,9/11/2019,38.22555556,-121.4911111
NFM,9/12/2019,10/17/2022,38.22333333,-121.5072222
NMR,9/12/2019,10/17/2022,38.14366944,-121.5595389
OBI,8/19/2020,10/19/2018,37.96992306,-121.572174
ORCC,7/28/2021,10/19/2018,37.82437145,-121.5524492
ORF,8/19/2020,10/19/2018,38.05,-121.58
ORI,8/19/2020,10/19/2018,37.91436901,-121.5655064
P1S1,7/14/2022,7/14/2022,38.0331611,-121.601761
P1S2,7/14/2022,7/14/2022,38.03385,-121.6021389
P1S3,7/14/2022,7/14/2022,38.0324111,-121.60135
P2S1,7/14/2022,7/14/2022,38.0463,-121.59815
P2S2,7/14/2022,7/14/2022,38.04703056,-121.5992
P3S1,8/3/2022,8/3/2022,38.0278,-121.6042889
P3S2,8/3/2022,8/3/2022,38.02828056,-121.6063889
P3S3,8/3/2022,8/3/2022,38.0267,-121.6055306
P4S1,8/3/2022,8/3/2022,38.05531944,-121.5894889
P4S2,8/3/2022,8/3/2022,38.05623056,-121.589111
P5S1,8/3/2022,8/3/2022,38.0548333,-121.5993833
P6S1,11/3/2022,11/3/2022,38.0458611,-121.6200833
P6S2,11/3/2022,11/3/2022,38.0454722,-121.6186944
P6S3,11/3/2022,11/3/2022,38.04552778,-121.618611
P7S1,11/3/2022,11/3/2022,38.0454722,-121.6265
P7S2,11/3/2022,11/3/2022,38.04580556,-121.6275556
P7S3,11/3/2022,11/3/2022,38.0463333,-121.6259444
POCKETN,10/24/2019,10/23/2019,38.51454167,-121.5456278
POCKETS,10/23/2019,10/23/2019,38.473719440000004,-121.5202667
PP5,9/28/2021,9/28/2021,38.06223,-121.54922
PPT,8/18/2020,10/17/2022,38.05944444,-121.5572222
PTC,3/10/2017,3/10/2017,38.51916667,-121.6961111
PTRI,9/1/2022,10/27/2022,37.90603056,-122.3999778
RICHB,9/1/2022,10/27/2022,37.93527778,-122.4463889
RL EAST BOTTOM,9/8/2022,5/12/2022,37.83126667,-122.5279333
RL EAST TOP,8/3/2022,7/20/2020,37.83126667,-122.5279333
RL WEST BOTTOM,9/8/2022,10/14/2021,37.8303,-122.53355
RL WEST TOP,8/3/2022,7/20/2020,37.8303,-122.53355
ROW,9/1/2020,6/16/2021,38.09345,-122.0271
RRI,9/26/2022,10/26/2021,37.963,-121.365
RYG,9/1/2020,6/16/2021,38.08905,-122.0255
SAUS,9/1/2022,10/27/2022,37.82929167,-122.4391389
SB1,8/31/2022,8/25/2022,37.61112,-122.28375
SB10,9/14/2022,10/26/2022,37.56697,-122.15602
SB11,9/7/2022,9/7/2022,37.68696944,-122.2656389
SB12,9/7/2022,9/7/2022,37.65418889,-122.2374389
SB3,8/31/2022,8/31/2022,37.65666,-122.3168
SB6,9/7/2022,8/25/2022,37.50410432,-122.1205192
SB7,9/7/2022,10/26/2022,37.6463,-122.1639
SB8,8/31/2022,10/26/2022,37.5343,-122.1359
SB9,9/7/2022,8/31/2022,37.6556,-122.2645
SFAIR,9/14/2022,8/25/2022,37.65664,-122.31627
SFEI06,8/10/2022,11/15/2022,38.06491948,-122.0360745
SFEI13,8/10/2022,11/15/2022,38.02833056,-122.37
SFEI18,8/10/2022,11/15/2022,37.84666667,-122.4216667
SFEI22,8/10/2022,11/15/2022,37.765,-122.3583306
SFEI27,8/10/2022,11/15/2022,37.6182671,-122.2927466
SFEI32,8/10/2022,8/10/2022,37.51833056,-122.1333306
SFEI34,8/10/2022,6/15/2022,37.495,-122.0983306
SFEI36,7/20/2022,11/15/2022,37.47166667,-122.0666667
SFEI657,8/10/2022,11/15/2022,38.15166667,-121.6883306
SHE,9/2/2020,6/7/2021,38.05105556,-121.79695
SHL,8/31/2022,10/13/2021,37.63078889,-122.2432
SHL2,9/2/2020,6/7/2021,38.03333056,-121.7931
SHL3,9/2/2020,6/7/2021,38.05388889,-121.7878
SHS,3/15/2017,3/15/2017,38.31956944,-121.693
SIE,9/19/2022,10/24/2022,38.15665,-121.5051889
SIS,9/19/2022,10/24/2022,38.1198,-121.5428972
SJP2,7/20/2022,7/20/2022,37.9524,-121.3175
SJRBC,8/18/2020,10/17/2022,37.97527778,-121.3769444
SJRST,7/26/2021,10/17/2022,37.94686848,-121.3402249
SJRVI,7/25/2018,10/18/2018,38.05019872,-121.4968961
SJT,8/18/2021,8/18/2021,38.0757,-121.5708889
SJW,7/28/2020,10/17/2022,38.03908889,-121.4927778
SLM,9/14/2022,10/13/2021,37.6742,-122.2178
SMB,8/31/2022,6/15/2022,37.584444,-122.249722
SMS,9/12/2019,10/17/2022,38.14196111,-121.5036889
SNAG,6/28/2016,5/25/2016,38.07045,-121.96771939999999
SNOD,10/24/2019,10/24/2019,38.34991158,-121.5327322
SOI,7/18/2022,10/18/2022,38.1754222,-121.6564333
SPB1,9/1/2022,10/27/2022,37.98839167,-122.4187
SPB2,9/1/2022,10/27/2022,38.0696611,-122.4644389
SPB3,4/18/2022,4/18/2022,38.0440972,-122.3549417
SPB4,9/1/2022,10/27/2022,38.11516667,-122.3842389
SPB5,9/1/2022,10/27/2022,38.08174444,-122.3071222
SPBW,9/1/2022,10/27/2022,38.01828889,-122.3282583
SRP,10/23/2019,10/23/2019,38.31435833,-121.5772333
SS,8/17/2020,10/17/2018,38.33616667,-121.672925
SS1,7/18/2022,10/18/2022,38.33215556,-121.5829306
SSB,8/17/2020,10/17/2018,38.30791944,-121.6928306
SSS,7/18/2022,10/18/2022,38.2847222,-121.5866667
SUI,9/1/2022,10/27/2022,38.07336667,-121.9325
SXS,7/18/2022,10/18/2022,38.19153889,-121.63905
SYC,8/19/2020,10/17/2022,38.142,-121.47
TIB,9/12/2019,9/10/2019,38.15878056,-121.5862889
TOE,9/23/2021,1/11/2022,38.34916667,-121.6447222
TOEN,8/3/2016,3/1/2017,38.36513889,-121.6377417
TOL,9/7/2022,1/5/2022,38.07780833,-121.7672861
TRN,8/18/2020,10/17/2022,37.9925,-121.4538889
TWI,9/20/2022,10/25/2022,38.09661389,-121.6512444
UCS,3/8/2017,3/8/2017,38.27555556,-121.7091667
UGZ,9/1/2022,10/27/2022,38.132238890000004,-122.0116806
UPPERCS,5/6/2016,5/6/2016,38.29476111,-121.7265194
USFPT,7/24/2018,10/19/2018,38.46111944,-121.5034694
WGA,9/14/2021,1/4/2022,38.25769218,-121.5182865
WGC,8/17/2020,10/20/2022,38.22488056,-121.556725
WLS,3/10/2017,3/10/2017,38.5886611,-121.6470389
WSPIER,10/24/2019,10/24/2019,38.56831667,-121.5205694
YOLOB1,3/8/2017,3/8/2017,38.41241944,-121.6363889
YOLOB2,3/8/2017,3/8/2017,38.40161944,-121.6254694
